name,lat,long
"Abu Dhabi","24.466667","54.366667"
"Basse-Terre","15.9958","-61.7292"
"Berlin","52.516667","13.383333"
"Beirut","33.886944","35.513056"
"Bissau","11.85","-15.566667"
"Bishkek","42.874722","74.612222"
"Beijing","39.916667","116.383333"
"Bogota","4.598056","-74.075833"
"Yerevan","40.183333","44.516667"
"Banjul","13.453056","-16.5775"
"Bangui","4.366667","18.583333"
"Basseterre","17.3","-62.733333"
"Yaren District","-0.5477","166.920867"
"Yaoundé","3.866667","11.516667"
"Bern","46.95","7.45"
"Belmopan","17.251389","-88.766944"
"Bangkok","13.75","100.466667"
"Willemstad","12.116667","-68.933333"
"Windhoek","-22.57","17.083611"
"Abidjan","5.316667","-4.033333"
"West Island, Cocos (Keeling) Islands","-12.186944","96.828333"
"Belgrade","44.816667","20.466667"
"Wellington","-41.288889","174.777222"
"Zagreb","45.816667","15.983333"
"Vientiane","17.966667","102.6"
"Bandar Seri Begawan","4.890278","114.942222"
"Warsaw","52.233333","21.016667"
"The Valley, Anguilla","18.220833","-63.051667"
"Yamoussoukro","6.816667","-5.283333"
"Vaduz","47.141","9.521"
"Valletta","35.897778","14.5125"
"Ulaanbaatar","47.916667","106.916667"
"Vienna","48.2","16.366667"
"Victoria, Seychelles","-4.616667","55.45"
"Vatican City","41.903333","12.453333"
"Tunis","36.8","10.183333"
"Tskhinvali","42.233333","43.966667"
"Tirana","41.33","19.82"
"Tripoli","32.902222","13.185833"
"Kutaisi","42.25","42.7"
"Tarawa","1.433333","173"
"Vilnius","54.683333","25.283333"
"Tehran","35.696111","51.423056"
"Tokyo","35.683333","139.683333"
"Washington, D.C.","38.904722","-77.016389"
"Tiraspol","46.85","29.633333"
"Suva","-18.1416","178.4419"
"Tegucigalpa","14.1","-87.216667"
"Torshavn","62.011667","-6.7675"
"Sukhumi","43.003333","41.015278"
"Thimphu","27.466667","89.641667"
"Tbilisi","41.716667","44.783333"
"Saint-Pierre, Saint Pierre and Miquelon","46.7778","-56.1778"
"Stockholm","59.329444","18.068611"
"Taipei","25.033333","121.633333"
"Stepanakert","39.815278","46.751944"
"Saint Peter Port","49.4555","-2.5368"
"La Paz","-16.5","-68.15"
"Stanley, Falkland Islands","-51.6921","-57.8589"
"Sucre","-19.05","-65.25"
"Tallinn","59.437222","24.745278"
"Sri Jayawardenepura Kotte","6.910833","79.887778"
"Sao Tomé","0.336111","6.681389"
"Sofia","42.7","23.33"
"Tashkent","41.266667","69.216667"
"Colombo","6.934444","79.842778"
"St. George's, Grenada","12.05","-61.75"
"St. John's, Antigua and Barbuda","17.116667","-61.85"
"Skopje","42","21.433333"
"Saint Helier","49.187","-2.107"
"Sarajevo","43.866667","18.416667"
"Singapore","1.283333","103.833333"
"Sana'a","15.348333","44.206389"
"Seoul","37.566667","126.966667"
"San Salvador","13.69","-89.19"
"Saint-Denis, Réunion","-20.8789","55.4481"
"San Juan, Puerto Rico","18.406389","-66.063889"
"Santo Domingo","18.466667","-69.95"
"Road Town","18.431389","-64.623056"
"Santiago","-33.45","-70.666667"
"Saipan","15.180833","145.755833"
"Roseau","15.301389","-61.388333"
"City of San Marino","43.9346","12.4473"
"Riyadh","24.633333","46.716667"
"San José, Costa Rica","9.933333","-84.083333"
"Quito","-0.233333","-78.516667"
"Pyongyang","39.019444","125.738056"
"Bloemfontein","-29.116667","26.216667"
"Riga","56.948889","24.106389"
"Rome","41.9","12.5"
"Praia","14.918","-23.509"
"Pristina","42.666667","21.166667"
"Cape Town","-33.925278","18.423889"
"Reykjavik","64.133333","-21.933333"
"Prague","50.083333","14.416667"
"Pretoria","-25.746111","28.188056"
"Rabat","34.033333","-6.833333"
"Cotonou","6.366667","2.433333"
"Port-au-Prince","18.533333","-72.333333"
"Porto-Novo","6.497222","2.605"
"Port Louis","-20.164386","57.504104"
"Podgorica","42.441286","19.262892"
"Port Moresby","-9.513639","147.218806"
"Port Vila","-17.75","168.3"
"Port of Spain","10.666667","-61.516667"
"Philipsburg, Sint Maarten","18.0237","-63.0458"
"Cetinje","42.38","18.92"
"Plymouth, Montserrat","16.706417","-62.215839"
"Paramaribo","5.866667","-55.166667"
"Pago Pago","-14.279444","-170.700556"
"Phnom Penh","11.55","104.916667"
"Palikir","6.917222","158.158889"
"Ouagadougou","12.357222","-1.535278"
"Panama City","8.983333","-79.516667"
"Paris","48.8567","2.3508"
"Papeete","-17.535","-149.5696"
"Nouméa","-22.2758","166.458"
"Brades","16.792778","-62.210556"
"Niamey","13.521389","2.105278"
"Ottawa","45.416667","-75.683333"
"Oranjestad, Aruba","12.519","-70.037"
"Oslo","59.95","10.75"
"N'Djamena","12.113056","15.049167"
"Muscat, Oman","23.6","58.583333"
"Nouakchott","18.1","-15.95"
"New Delhi","28.613889","77.208889"
"Moroni, Comoros","-11.699","43.256"
"Lobamba","-26.416667","31.166667"
"Nassau, Bahamas","25.066667","-77.333333"
"Naypyidaw","19.75","96.1"
"Ngerulmud","7.500556","134.624167"
"Mogadishu","2.033333","45.35"
"Monrovia","6.313333","-10.801389"
"Nairobi","-1.283333","36.816667"
"Nuku'alofa","-21.133333","-175.2"
"Nuuk","64.175","-51.738889"
"Mbabane","-26.316667","31.133333"
"Monaco","43.716667","7.416667"
"Nicosia","35.166667","33.366667"
"Moscow","55.75","37.616667"
"Maseru","-29.31","27.48"
"Maputo","-25.966667","32.583333"
"Minsk","53.9","27.566667"
"Mata-Utu","-13.283333","-176.183333"
"Manila","14.58","121"
"Manama","26.216667","50.583333"
"Marigot, Saint Martin","18.0731","-63.0822"
"Montevideo","-34.883611","-56.181944"
"Mexico City","19.433333","-99.133333"
"Mamoudzou","-12.7806","45.2278"
"Majuro","7.066667","171.266667"
"Lomé","6.131944","1.222778"
"Luanda","-8.838333","13.234444"
"Managua","12.136389","-86.251389"
"Lusaka","-15.416667","28.283333"
"Lilongwe","-13.983333","33.783333"
"Madrid","40.383333","-3.716667"
"Malabo","3.752064","8.7737"
"Libreville","0.39","9.45"
"Malé","4.175278","73.508889"
"Luxembourg City","49.61","6.1333"
"Lima","-12.043333","-77.028333"
"Lisbon","38.713889","-9.139444"
"London","51.507222","-0.1275"
"Kuwait City","29.369722","47.978333"
"Ljubljana","46.055556","14.508333"
"Kinshasa","-4.325","15.322222"
"Kingston, Norfolk Island","-29.05","167.966667"
"Kuala Lumpur","3.133333","101.683333"
"King Edward Point","-54.283333","-36.5"
"Kabul","34.533333","69.166667"
"Kiev","50.45","30.523333"
"Kathmandu","27.7","85.333333"
"Kingston, Jamaica","17.983333","-76.8"
"Kampala","0.313611","32.581111"
"Khartoum","15.633333","32.533333"
"Helsinki","60.170833","24.9375"
"Juba","4.85","31.6"
"Jamestown, Saint Helena","-15.924444","-5.718056"
"Honiara","-9.433333","159.95"
"Kingstown","13.157778","-61.225"
"Kigali","-1.943889","30.059444"
"Jakarta","-6.2","106.816667"
"Putrajaya","2.943095","101.699373"
"Havana","23.133333","-82.383333"
"Hargeisa","9.566667","44.066667"
"Harare","-17.863889","31.029722"
"Hong Kong","22.3","114.2"
"Hagatna, Guam","13.479167","144.75"
"Hanoi","21.028472","105.854167"
"Gustavia, Saint Bartholemy","17.897908","-62.850556"
"Islamabad","33.716667","73.066667"
"Hanga Roa","-27.133333","-109.416667"
"Georgetown, Guyana","6.8","-58.166667"
"Georgetown, Ascension Island","-7.928611","-14.411667"
"Episkopi Cantonment","34.676","32.8375"
"Gibraltar","36.133333","-5.35"
"Hamilton, Bermuda","32.293","-64.782"
"Guatemala City","14.613333","-90.535278"
"Jerusalem","31.783333","35.216667"
"Flying Fish Cove","-10.421667","105.678056"
"George Town, Cayman Islands","19.3034","-81.3863"
"Fort-de-France","14.6","-61.0833"
"Edinburgh of the Seven Seas","-37.067278","-12.31"
"Ramallah","31.9","35.2"
"Dushanbe","38.536667","68.78"
"Djibouti (city)","11.588333","43.145"
"Freetown","8.484444","-13.234444"
"Dublin","53.347778","-6.259722"
"Douglas, Isle of Man","54.145","-4.482"
"Funafuti","-8.5152","179.199401"
"Dodoma","-6.173056","35.741944"
"Gaborone","-24.658056","25.912222"
"Dakar","14.692778","-17.446667"
"Dili","-8.566667","125.566667"
"Castries","14.016667","-60.983333"
"Charlotte Amalie, U.S. Virgin Islands","18.35","-64.95"
"Conakry","9.516667","-13.7"
"Doha","25.286667","51.533333"
"Cockburn Town","21.459","-71.139"
"Cayenne","4.9372","-52.326"
"Dhaka","23.7","90.366667"
"Caracas","10.5","-66.916667"
"Bujumbura","-3.383333","29.366667"
"City of Brussels","50.85","4.35"
"Canberra","-35.3075","149.124417"
"Copenhagen","55.676111","12.568333"
"Damascus","33.513056","36.291944"
"Budapest","47.4925","19.051389"
"Bridgetown","13.105833","-59.613056"
"Cairo","30.05","31.233333"
"Bamako","12.65","-8"
"Brasilia","-15.793889","-47.882778"
"Bratislava","48.143889","17.109722"
"Buenos Aires","-34.603333","-58.381667"
"Baku","40.395278","49.882222"
"Brazzaville","-4.267778","15.291944"
"Asuncion","-25.266667","-57.633333"
"Bucharest","44.4325","26.103889"
"Astana","51.166667","71.433333"
"Ashgabat","37.933333","58.366667"
"Apia","-13.833333","-171.75"
"Asmara","15.333333","38.933333"
"Avarua","-21.2","-159.766667"
"Andorra la Vella","42.5","1.5"
"Baghdad","33.333333","44.433333"
"Athens","37.966667","23.716667"
"Antananarivo","-18.933333","47.516667"
"Alofi, Niue","-19.05","-169.9"
"Amsterdam","52.366667","4.9"
"Addis Ababa","9.03","38.74"
"Amman","31.949722","35.932778"
"Accra","5.55","-0.2"
"Adamstown, Pitcairn Islands","-25.066667","-130.1"
"Abuja","9.066667","7.483333"
"Algiers","36.766667","3.216667"
"Ankara","39.933333","32.866667"
